{"type":"FeatureCollection","features":[
{"type":"Feature","geometry":{"type":"Point","coordinates":[-9084180,4370953]},"properties":{"latitude":36.509478,"longitude":-81.604574,"Farm_Name":"Highland Meadows Cattle Co.","Street_Add":"998 Virgil Greer Rd.","City_Town":"Lansing","Zipcode":28643,"County":"Ashe","New_or_Ret":"New"}},
{"type":"Feature","geometry":{"type":"Point","coordinates":[-9085809,4362245]},"properties":{"latitude":36.44658,"longitude":-81.619207,"Farm_Name":"Faith Mountain Farm","Street_Add":"489 Big Laurel Rd.","City_Town":"Grassy Creek","Zipcode":28615,"County":"Ashe","New_or_Ret":"Returning"}},
{"type":"Feature","geometry":{"type":"Point","coordinates":[-9065231,4376628]},"properties":{"latitude":36.55044,"longitude":-81.434359,"Farm_Name":"Zydeco Moon","Street_Add":"2220 Big Helton Rd.","City_Town":"Grassy Creek","Zipcode":28631,"County":"Ashe","New_or_Ret":"Returning"}},
{"type":"Feature","geometry":{"type":"Point","coordinates":[-9065204,4371709]},"properties":{"latitude":36.514933,"longitude":-81.43411,"Farm_Name":"Landmark Farm Alpacas","Street_Add":"1118 Landmark Church Rd.","City_Town":"Grassy Creek","Zipcode":28631,"County":"Ashe","New_or_Ret":"Returning"}},
{"type":"Feature","geometry":{"type":"Point","coordinates":[-9063041,4360829]},"properties":{"latitude":36.436343,"longitude":-81.414685,"Farm_Name":"Heritage Homestead","Street_Add":"956 Roy Goodman Rd.","City_Town":"Crumpler","Zipcode":28617,"County":"Ashe","New_or_Ret":"Returning"}},
{"type":"Feature","geometry":{"type":"Point","coordinates":[-9078003,4353728]},"properties":{"latitude":36.385007,"longitude":-81.549086,"Farm_Name":"Woodland Harvest Mountain Farm","Street_Add":"639 Edwards Rd.","City_Town":"West Jefferson","Zipcode":28694,"County":"Ashe","New_or_Ret":"Returning"}},
{"type":"Feature","geometry":{"type":"Point","coordinates":[-9072780,4344609]},"properties":{"latitude":36.3190314,"longitude":-81.5021725,"Farm_Name":"Goodnight Family Sustainable Development Teaching and Research Farm at ASU","Street_Add":"608 Watertank Rd.","City_Town":"Fleetwood","Zipcode":28627,"County":"Ashe","New_or_Ret":"Returning"}},
{"type":"Feature","geometry":{"type":"Point","coordinates":[-9060601,4341519]},"properties":{"latitude":36.296667,"longitude":-81.392765,"Farm_Name":"A Berry Patch Farm","Street_Add":"240 Mesa Way","City_Town":"West Jefferson","Zipcode":28694,"County":"Ashe","New_or_Ret":"Returning"}},
{"type":"Feature","geometry":{"type":"Point","coordinates":[-9085963,4344010]},"properties":{"latitude":36.314699,"longitude":-81.620597,"Farm_Name":"The Farm at Mollie's Branch","Street_Add":"156 Timber Lakes Dr.","City_Town":"Todd","Zipcode":28684,"County":"Watauga","New_or_Ret":"Returning"}},
{"type":"Feature","geometry":{"type":"Point","coordinates":[-9080036,4332229]},"properties":{"latitude":36.229372,"longitude":-81.567351,"Farm_Name":"Fog Likely Farm","Street_Add":"195 Day Dr.","City_Town":"Boone","Zipcode":28607,"County":"Watauga","New_or_Ret":"New"}},
{"type":"Feature","geometry":{"type":"Point","coordinates":[-9088255,4330110]},"properties":{"latitude":36.2140155,"longitude":-81.6411831,"Farm_Name":"Hospitality House of Boone and Community Gardens","Street_Add":"338 Brook Hollow Rd.","City_Town":"Boone","Zipcode":28607,"County":"Watauga","New_or_Ret":"Returning"}},
{"type":"Feature","geometry":{"type":"Point","coordinates":[-9086221,4327204]},"properties":{"latitude":36.192952,"longitude":-81.622915,"Farm_Name":"New Life Farm","Street_Add":"254 Cindy Rd.","City_Town":"Boone","Zipcode":28607,"County":"Watauga","New_or_Ret":"Returning"}},
{"type":"Feature","geometry":{"type":"Point","coordinates":[-9103377,4329464]},"properties":{"latitude":36.2093354,"longitude":-81.7770307,"Farm_Name":"F.A.R.M. Cafe 'The Garden Spot'","Street_Add":"2918 Broadstone Rd. (Hwy 194)","City_Town":"Valle Crucis","Zipcode":0,"County":"Watauga","New_or_Ret":"Returning"}},
{"type":"Feature","geometry":{"type":"Point","coordinates":[-9104605,4327686]},"properties":{"latitude":36.1964483,"longitude":-81.7880602,"Farm_Name":"FIG Farm","Street_Add":"Dutch Creek Rd. (near 194 intersection)","City_Town":"Banner Elk","Zipcode":28604,"County":"Watauga","New_or_Ret":"Returning"}},
{"type":"Feature","geometry":{"type":"Point","coordinates":[-9103812,4325340]},"properties":{"latitude":36.179435,"longitude":-81.780934,"Farm_Name":"Waxwing Farm","Street_Add":"410 Justus Rd","City_Town":"Banner Elk","Zipcode":28604,"County":"Watauga","New_or_Ret":"New"}},
{"type":"Feature","geometry":{"type":"Point","coordinates":[-9107965,4327583]},"properties":{"latitude":36.195702,"longitude":-81.818246,"Farm_Name":"Lively Up Farm","Street_Add":"951 Upper Crab Orchard","City_Town":"Banner Elk","Zipcode":28604,"County":"Watauga","New_or_Ret":"Returning"}},
{"type":"Feature","geometry":{"type":"Point","coordinates":[-9107965,4327583]},"properties":{"latitude":36.195702,"longitude":-81.818246,"Farm_Name":"Apple Hill Farm","Street_Add":"400 Apple Hill Rd.","City_Town":"Banner Elk","Zipcode":28604,"County":"Watauga","New_or_Ret":"Returning"}},
{"type":"Feature","geometry":{"type":"Point","coordinates":[-9100681,4342946]},"properties":{"latitude":36.306996,"longitude":-81.752808,"Farm_Name":"Against the Grain","Street_Add":"619 Camp Joy Rd.","City_Town":"Zionville","Zipcode":28698,"County":"Watauga","New_or_Ret":"Returning"}},
{"type":"Feature","geometry":{"type":"Point","coordinates":[-9100707,4344228]},"properties":{"latitude":36.3162774,"longitude":-81.7530463,"Farm_Name":"Nelson Family Farm","Street_Add":"4096 Silverstone Rd.","City_Town":"Zionville","Zipcode":28698,"County":"Watauga","New_or_Ret":"Returning"}}
]}